City_ID,City,Country,Date,Lat,Lng,Max Temp,Humidity,Cloudiness,Wind Speed,Weather Description,Rain inches (last 3 hrs),Snow inches (last 3 hrs)
0,Albany,US,2020-01-05 22:26:07,42.65,-73.75,33.01,68,90,11.41,overcast clouds,0.0,0.0
1,Nikolskoye,RU,2020-01-05 22:27:53,59.7,30.79,24.01,79,81,4.47,broken clouds,0.0,0.0
2,Belushya Guba,RU,2020-01-05 22:27:53,59.7,30.79,24.01,79,81,4.47,broken clouds,0.0,0.0
3,Aklavik,CA,2020-01-05 22:27:54,68.22,-135.01,-16.6,62,90,10.29,light snow,0.0,0.0
4,Mar Del Plata,AR,2020-01-05 22:23:46,-46.43,-67.52,69.57,33,100,6.33,overcast clouds,0.0,0.0
5,Pevek,RU,2020-01-05 22:23:24,69.7,170.27,-6.29,82,0,5.59,clear sky,0.0,0.0
6,Pisco,PE,2020-01-05 22:27:54,-13.71,-76.2,73.0,30,69,19.46,broken clouds,0.0,0.0
7,Bubaque,GW,2020-01-05 22:27:54,11.28,-15.83,77.5,57,5,18.01,clear sky,0.0,0.0
8,Ondjiva,AO,2020-01-05 22:27:54,-17.07,15.73,69.91,76,100,5.41,overcast clouds,0.0,0.0
9,Atuona,PF,2020-01-05 22:27:55,-9.8,-139.03,80.56,67,0,4.74,clear sky,0.0,0.0
10,Half Moon Bay,US,2020-01-05 22:27:55,37.46,-122.43,61.0,71,1,14.99,clear sky,0.0,0.0
11,Tagoytoy,PH,2020-01-05 22:27:55,13.42,123.68,71.8,94,100,8.46,light rain,1.5,0.0
12,Meulaboh,ID,2020-01-05 22:27:55,4.14,96.13,80.4,81,0,6.78,clear sky,0.0,0.0
13,Vaitupu,ID,2020-01-05 22:27:55,4.14,96.13,80.4,81,0,6.78,clear sky,0.0,0.0
14,Butaritari,KI,2020-01-05 22:27:56,3.07,172.79,85.28,76,100,15.26,moderate rain,3.81,0.0
15,Concordia,AR,2020-01-05 22:27:56,-31.4,-58.02,88.0,38,0,7.0,clear sky,0.0,0.0
16,Alofi,NU,2020-01-05 22:27:56,-19.06,-169.92,84.2,74,1,11.41,light rain,0.19,0.0
17,Vaini,IN,2020-01-05 22:27:56,15.34,74.49,66.11,79,0,6.89,clear sky,0.0,0.0
18,Kapaa,US,2020-01-05 22:27:56,22.08,-159.32,80.6,69,40,14.99,scattered clouds,0.0,0.0
19,Bengkulu,US,2020-01-05 22:27:56,22.08,-159.32,80.6,69,40,14.99,scattered clouds,0.0,0.0
20,Busselton,AU,2020-01-05 22:27:57,-33.64,115.35,53.01,97,0,9.35,clear sky,0.0,0.0
21,Hinton,CA,2020-01-05 22:27:57,53.4,-117.57,27.43,66,100,15.14,overcast clouds,0.0,0.0
22,Thinadhoo,MV,2020-01-05 22:27:57,0.53,72.93,81.39,77,98,3.31,light rain,1.19,0.0
23,Salisbury,GB,2020-01-05 22:27:57,51.07,-1.8,46.99,87,100,8.05,overcast clouds,0.0,0.0
24,Goderich,CA,2020-01-05 22:27:57,43.74,-81.71,30.0,86,100,10.0,overcast clouds,0.0,0.0
25,Punta Arenas,CL,2020-01-05 22:27:58,-53.16,-70.91,53.6,54,40,26.4,scattered clouds,0.0,0.0
26,Bambous Virieux,MU,2020-01-05 22:27:58,-20.34,57.76,73.4,100,75,10.29,moderate rain,0.0,0.0
27,Sehithwa,BW,2020-01-05 22:27:58,-20.47,22.7,76.86,69,84,12.91,light rain,1.13,0.0
28,West Wendover,US,2020-01-05 22:27:58,40.74,-114.07,42.8,52,40,14.99,scattered clouds,0.0,0.0
29,Port Alfred,ZA,2020-01-05 22:27:58,-33.59,26.89,69.01,90,50,1.01,scattered clouds,0.0,0.0
30,Hearst,CA,2020-01-05 22:27:59,49.69,-83.67,10.45,95,100,6.29,overcast clouds,0.0,0.0
31,Hermanus,ZA,2020-01-05 22:27:59,-34.42,19.24,64.0,90,100,11.03,overcast clouds,0.0,0.0
32,Dzhebariki-Khaya,RU,2020-01-05 22:27:59,62.22,135.8,-5.58,99,100,1.1,light snow,0.0,0.19
33,Port Elizabeth,US,2020-01-05 22:27:59,39.31,-74.98,39.99,47,90,13.87,overcast clouds,0.0,0.0
34,Ushuaia,AR,2020-01-05 22:27:59,-54.81,-68.31,51.8,62,40,26.4,scattered clouds,0.0,0.0
35,Lydenburg,ZA,2020-01-05 22:27:59,-25.1,30.46,62.62,86,26,2.01,light rain,1.13,0.0
36,Kavieng,PG,2020-01-05 22:28:00,-2.57,150.8,84.27,73,56,7.54,light rain,2.0,0.0
37,Sentyabrskiy,PG,2020-01-05 22:28:00,-2.57,150.8,84.27,73,56,7.54,light rain,0.0,0.0
38,Bluff,AU,2020-01-05 22:28:00,-23.58,149.07,74.39,77,0,10.36,clear sky,0.0,0.0
39,Barrow,AR,2020-01-05 22:28:00,-38.31,-60.23,73.53,76,100,3.74,moderate rain,7.25,0.0
40,Saint-Philippe,CA,2020-01-05 22:28:00,45.36,-73.48,23.0,57,20,12.75,few clouds,0.0,0.0
41,Lagoa,PT,2020-01-05 22:28:01,37.14,-8.45,54.0,76,0,6.93,clear sky,0.0,0.0
42,Paita,PE,2020-01-05 22:28:01,-5.09,-81.11,62.6,100,0,13.87,clear sky,0.0,0.0
43,Bawku,GH,2020-01-05 22:28:01,11.06,-0.24,74.01,21,0,7.05,clear sky,0.0,0.0
44,Saleaula,GH,2020-01-05 22:28:01,11.06,-0.24,74.01,21,0,7.05,clear sky,0.0,0.0
45,Poso,ID,2020-01-05 22:28:01,-1.4,120.75,67.23,98,100,1.1,moderate rain,3.81,0.0
46,Emerald,AU,2020-01-05 22:28:01,-23.53,148.16,79.0,69,75,10.29,broken clouds,0.0,0.0
47,Mazatlan,MX,2020-01-05 22:27:27,23.22,-106.42,82.4,32,20,5.82,few clouds,0.0,0.0
48,Kuybysheve,UA,2020-01-05 22:28:02,47.36,36.65,34.11,97,100,4.07,overcast clouds,0.0,0.0
49,Carnarvon,ZA,2020-01-05 22:28:02,-30.97,22.13,66.76,29,24,10.56,few clouds,0.0,0.0
50,Castro,CL,2020-01-05 22:28:02,-42.48,-73.76,57.2,62,20,10.29,few clouds,0.0,0.0
51,Baykit,RU,2020-01-05 22:26:53,61.68,96.39,9.34,96,100,4.05,overcast clouds,0.0,0.0
52,Westpunt,RU,2020-01-05 22:26:53,61.68,96.39,9.34,96,100,4.05,overcast clouds,0.0,0.0
53,Kaitangata,NZ,2020-01-05 22:28:03,-46.28,169.85,53.01,64,80,28.01,light rain,1.19,0.0
54,Faanui,PF,2020-01-05 22:28:03,-16.48,-151.75,81.57,75,37,9.42,scattered clouds,0.0,0.0
55,Yulara,AU,2020-01-05 22:28:03,-25.24,130.99,64.4,82,90,12.75,overcast clouds,0.0,0.0
56,Bathsheba,BB,2020-01-05 22:28:03,13.22,-59.52,75.2,88,40,4.7,light rain,0.0,0.0
57,Zhanatas,BB,2020-01-05 22:28:03,13.22,-59.52,75.2,88,40,4.7,light rain,0.0,0.0
58,Namibe,AO,2020-01-05 22:28:04,-15.19,12.15,73.89,90,79,11.88,broken clouds,0.0,0.0
59,Taolanaro,AO,2020-01-05 22:28:04,-15.19,12.15,73.89,90,79,11.88,broken clouds,0.0,0.0
60,Vestmanna,FO,2020-01-05 22:28:04,62.16,-7.17,46.4,93,100,13.87,light rain,0.0,0.0
61,Norman Wells,CA,2020-01-05 22:28:04,65.28,-126.83,-31.0,66,20,2.24,few clouds,0.0,0.0
62,Bonavista,CA,2020-01-05 22:28:05,48.65,-53.11,29.82,95,100,24.11,snow,0.0,1.69
63,Cape Coast,GH,2020-01-05 22:28:05,5.11,-1.24,82.0,54,0,9.86,clear sky,0.0,0.0
64,Illoqqortoormiut,GH,2020-01-05 22:28:05,5.11,-1.24,82.0,54,0,9.86,clear sky,0.0,0.0
65,Ahipara,NZ,2020-01-05 22:24:39,-35.17,173.16,66.99,100,100,1.99,light rain,0.63,0.0
66,Chokurdakh,RU,2020-01-05 22:28:05,70.62,147.9,-21.48,99,84,3.83,broken clouds,0.0,0.0
67,Mataura,NZ,2020-01-05 22:23:19,-46.19,168.86,50.0,76,87,25.99,light rain,1.56,0.0
68,Saldanha,PT,2020-01-05 22:28:06,41.42,-6.55,38.03,75,7,0.6,clear sky,0.0,0.0
69,Peniche,PT,2020-01-05 22:28:06,39.36,-9.38,53.01,81,0,2.24,clear sky,0.0,0.0
70,Hobart,AU,2020-01-05 22:23:36,-42.88,147.33,62.01,51,40,4.7,scattered clouds,0.0,0.0
71,Hilo,US,2020-01-05 22:23:24,19.71,-155.08,80.6,57,20,8.05,few clouds,0.0,0.0
72,Coihaique,CL,2020-01-05 22:25:30,-45.58,-72.07,57.2,66,75,4.7,light intensity shower rain,0.0,0.0
73,Las Vegas,US,2020-01-05 22:28:07,36.17,-115.15,59.0,38,1,4.7,clear sky,0.0,0.0
74,Shubarshi,KZ,2020-01-05 22:28:07,48.59,57.19,18.68,96,98,4.7,light snow,0.0,0.13
75,Geraldton,CA,2020-01-05 22:28:07,49.72,-86.95,15.8,78,90,9.17,light snow,0.0,0.0
76,Abu Jubayhah,CA,2020-01-05 22:28:07,49.72,-86.95,15.8,78,90,9.17,light snow,0.0,0.0
77,Meleuz,RU,2020-01-05 22:28:07,52.96,55.93,24.55,95,100,6.35,light snow,0.0,0.25
78,Avarua,CK,2020-01-05 22:26:07,-21.21,-159.78,80.6,94,100,8.05,light rain,0.75,0.0
79,Pendencias,BR,2020-01-05 22:28:08,-5.26,-36.72,84.36,58,100,17.43,overcast clouds,0.0,0.0
80,Coruripe,BR,2020-01-05 22:28:08,-10.12,-36.18,79.48,77,100,12.82,overcast clouds,0.0,0.0
81,Laguna,BZ,2020-01-05 22:24:33,16.17,-88.94,73.4,78,75,9.17,broken clouds,0.0,0.0
82,Thompson,CA,2020-01-05 22:28:08,55.74,-97.86,6.8,84,90,6.93,light snow,0.0,0.0
83,Ancud,CL,2020-01-05 22:24:07,-41.87,-73.83,57.2,62,20,10.29,few clouds,0.0,0.0
84,Manzil Tamim,CL,2020-01-05 22:24:07,-41.87,-73.83,57.2,62,20,10.29,few clouds,0.0,0.0
85,Louga,SN,2020-01-05 22:28:09,15.62,-16.22,68.0,30,0,4.7,dust,0.0,0.0
86,Sitka,US,2020-01-05 22:28:09,37.17,-99.65,52.0,35,2,8.25,clear sky,0.0,0.0
87,Puerto Ayora,EC,2020-01-05 22:28:09,-0.74,-90.35,84.2,62,20,18.34,few clouds,0.0,0.0
88,Tiksi,RU,2020-01-05 22:28:09,71.64,128.87,-14.8,86,0,11.92,clear sky,0.0,0.0
89,Vila,IT,2020-01-05 22:28:09,45.18,8.4,44.01,84,0,2.24,clear sky,0.0,0.0
90,Cape Town,ZA,2020-01-05 22:25:59,-33.93,18.42,66.99,77,75,8.05,broken clouds,0.0,0.0
91,Rikitea,PF,2020-01-05 22:28:10,-23.12,-134.97,76.03,78,67,15.41,broken clouds,0.0,0.0
92,Hofn,IS,2020-01-05 22:24:55,64.25,-15.21,43.52,74,100,12.55,overcast clouds,0.0,0.0
93,Wilmington,US,2020-01-05 22:28:10,39.75,-75.55,39.2,47,75,12.75,broken clouds,0.0,0.0
94,Kanash,RU,2020-01-05 22:28:10,55.51,47.5,26.6,100,75,8.95,broken clouds,0.0,0.0
95,Katsuura,JP,2020-01-05 22:28:11,33.93,134.5,37.4,74,40,6.93,scattered clouds,0.0,0.0
96,Isangel,VU,2020-01-05 22:28:11,-19.55,169.27,84.2,62,20,14.99,few clouds,0.0,0.0
97,Matara,BI,2020-01-05 22:28:11,-3.48,29.48,57.96,91,100,1.5,light rain,0.63,0.0
98,Torbay,CA,2020-01-05 22:23:52,47.66,-52.73,30.99,100,90,26.4,snow,0.0,0.0
99,Zabol,IR,2020-01-05 22:28:11,31.03,61.49,50.0,76,90,6.93,overcast clouds,0.0,0.0
100,San Rafael Del Sur,NI,2020-01-05 22:28:11,11.85,-86.44,91.4,46,40,18.34,scattered clouds,0.0,0.0
101,Mattru,SL,2020-01-05 22:28:12,7.62,-11.83,72.95,75,42,3.6,scattered clouds,0.0,0.0
102,Gawler,AU,2020-01-05 22:28:12,-34.6,138.75,66.99,51,63,4.7,broken clouds,0.0,0.0
103,East London,ZA,2020-01-05 22:24:26,-33.02,27.91,73.44,75,90,4.63,overcast clouds,0.0,0.0
104,Jamestown,AU,2020-01-05 22:23:27,-33.21,138.6,56.25,87,89,5.93,light rain,2.19,0.0
105,Dosso,NE,2020-01-05 22:28:12,13.05,3.19,70.07,24,88,9.95,overcast clouds,0.0,0.0
106,Nyurba,RU,2020-01-05 22:28:13,63.29,118.35,-5.06,99,95,2.13,light snow,0.0,0.13
107,Sakakah,RU,2020-01-05 22:28:13,63.29,118.35,-5.06,99,95,2.13,light snow,0.0,0.0
108,Petropavlovsk-Kamchatskiy,RU,2020-01-05 22:28:13,53.05,158.65,32.0,91,75,13.42,broken clouds,0.0,0.0
109,Krasnyy Chikoy,RU,2020-01-05 22:28:13,50.36,108.75,-5.06,99,49,2.17,scattered clouds,0.0,0.0
110,Hasaki,JP,2020-01-05 22:28:13,35.73,140.83,32.0,50,20,2.24,few clouds,0.0,0.0
111,Los Llanos De Aridane,ES,2020-01-05 22:28:14,28.66,-17.92,64.4,59,75,9.17,broken clouds,0.0,0.0
112,Husavik,CA,2020-01-05 22:28:14,50.56,-96.99,26.01,62,37,5.99,scattered clouds,0.0,0.0
113,Luangwa,MZ,2020-01-05 22:28:14,-15.62,30.4,70.12,96,92,1.16,overcast clouds,0.0,0.0
114,Linxia,CN,2020-01-05 22:28:14,35.6,103.21,20.34,75,100,1.1,overcast clouds,0.0,0.0
115,San Cristobal,HN,2020-01-05 22:28:14,14.68,-86.92,69.13,77,96,10.8,overcast clouds,0.0,0.0
116,Epe,DE,2020-01-05 22:28:14,52.18,7.04,44.01,75,75,6.93,broken clouds,0.0,0.0
117,Tuktoyaktuk,CA,2020-01-05 22:28:15,69.44,-133.03,-20.2,68,75,9.17,broken clouds,0.0,0.0
118,Iqaluit,CA,2020-01-05 22:24:06,63.75,-68.52,-20.2,68,90,2.24,light snow,0.0,0.0
119,Yellowknife,CA,2020-01-05 22:28:15,62.45,-114.38,-14.01,75,20,5.82,few clouds,0.0,0.0
120,Vila Franca Do Campo,PT,2020-01-05 22:28:15,37.72,-25.43,64.4,93,40,17.22,scattered clouds,0.0,0.0
121,Khatanga,RU,2020-01-05 22:28:15,71.98,102.47,-8.95,88,100,6.8,overcast clouds,0.0,0.0
122,Sibolga,ID,2020-01-05 22:28:16,1.74,98.78,68.79,94,8,4.03,clear sky,0.0,0.0
123,Bredasdorp,ZA,2020-01-05 22:28:16,-34.53,20.04,66.2,68,100,8.05,overcast clouds,0.0,0.0
124,Iracoubo,GF,2020-01-05 22:28:16,5.48,-53.21,79.74,77,29,12.21,scattered clouds,0.0,0.0
125,New Norfolk,AU,2020-01-05 22:28:16,-42.78,147.06,63.0,51,40,4.7,scattered clouds,0.0,0.0
126,Amudat,UG,2020-01-05 22:28:16,1.95,34.95,74.05,51,66,5.17,broken clouds,0.0,0.0
127,Mexticacan,MX,2020-01-05 22:28:17,21.27,-102.78,71.6,10,40,6.93,scattered clouds,0.0,0.0
128,Ponta Do Sol,BR,2020-01-05 22:23:30,-20.63,-46.0,75.29,84,20,4.41,light rain,1.94,0.0
129,Anadyr,RU,2020-01-05 22:28:17,64.73,177.51,-29.2,73,0,11.18,fog,0.0,0.0
130,Lebu,ET,2020-01-05 22:28:17,8.96,38.73,57.2,71,75,6.93,broken clouds,0.0,0.0
131,Khonuu,ET,2020-01-05 22:28:17,8.96,38.73,57.2,71,75,6.93,broken clouds,0.0,0.0
132,Amderma,ET,2020-01-05 22:28:17,8.96,38.73,57.2,71,75,6.93,broken clouds,0.0,0.0
133,Lompoc,US,2020-01-05 22:28:18,34.64,-120.46,68.0,59,1,18.34,clear sky,0.0,0.0
134,Mahebourg,MU,2020-01-05 22:28:18,-20.41,57.7,73.4,100,75,10.29,moderate rain,0.0,0.0
135,Nome,US,2020-01-05 22:28:18,30.04,-94.42,73.4,43,1,8.05,clear sky,0.0,0.0
136,Vieux-Habitants,GP,2020-01-05 22:28:18,16.06,-61.77,75.2,88,90,5.82,overcast clouds,0.0,0.0
137,Okhotsk,RU,2020-01-05 22:28:18,59.36,143.24,3.43,76,0,12.03,clear sky,0.0,0.0
138,Georgetown,GY,2020-01-05 22:26:09,6.8,-58.16,80.6,74,0,4.7,clear sky,0.0,0.0
139,Monrovia,LR,2020-01-05 22:28:19,6.33,-10.8,71.6,94,20,7.96,mist,0.0,0.0
140,Lorengau,PG,2020-01-05 22:28:19,-2.02,147.27,84.42,72,94,9.64,light rain,2.25,0.0
141,Tsihombe,PG,2020-01-05 22:28:19,-2.02,147.27,84.42,72,94,9.64,light rain,0.0,0.0
142,Damavand,IR,2020-01-05 22:28:19,35.72,52.07,33.8,64,0,4.43,clear sky,0.0,0.0
143,Hvammstangi,IR,2020-01-05 22:28:19,35.72,52.07,33.8,64,0,4.43,clear sky,0.0,0.0
144,Akyab,IR,2020-01-05 22:28:19,35.72,52.07,33.8,64,0,4.43,clear sky,0.0,0.0
145,Barentsburg,IR,2020-01-05 22:28:19,35.72,52.07,33.8,64,0,4.43,clear sky,0.0,0.0
146,Dorogobuzh,RU,2020-01-05 22:28:20,54.91,33.3,25.23,89,18,6.11,few clouds,0.0,0.0
147,Waipawa,NZ,2020-01-05 22:28:20,-39.94,176.59,64.99,55,0,21.0,clear sky,0.0,0.0
148,Bulaevo,KZ,2020-01-05 22:28:20,54.91,70.44,13.03,94,90,11.79,overcast clouds,0.0,0.0
149,Saint George,GR,2020-01-05 22:28:20,39.45,22.34,42.01,56,75,12.75,broken clouds,0.0,0.0
150,Saskylakh,RU,2020-01-05 22:28:21,71.97,114.09,-19.21,94,0,13.09,clear sky,0.0,0.0
151,Karamay,RU,2020-01-05 22:28:21,71.97,114.09,-19.21,94,0,13.09,clear sky,0.0,0.0
152,Esteio,BR,2020-01-05 22:28:21,-29.85,-51.18,84.2,57,76,20.8,broken clouds,0.0,0.0
153,Sola,TZ,2020-01-05 22:28:21,-3.17,33.8,66.42,84,89,4.52,overcast clouds,0.0,0.0
154,Redding,US,2020-01-05 22:28:21,40.59,-122.39,55.4,50,1,4.7,clear sky,0.0,0.0
155,Espanola,CA,2020-01-05 22:28:22,46.27,-81.77,17.69,93,100,4.88,overcast clouds,0.0,0.0
156,Tecoanapa,MX,2020-01-05 22:28:22,16.99,-99.26,86.0,70,40,6.93,scattered clouds,0.0,0.0
157,Keflavik,IS,2020-01-05 22:28:22,64.0,-22.56,37.4,86,90,9.17,shower rain,0.0,0.0
158,Grootfontein,NA,2020-01-05 22:28:22,-19.56,18.1,65.53,91,100,8.23,moderate rain,4.25,0.0
159,Dahra,DZ,2020-01-05 22:28:22,36.25,0.85,46.4,87,0,4.7,clear sky,0.0,0.0
160,Saint-Pierre,FR,2020-01-05 22:28:22,48.95,4.24,33.8,100,0,4.7,clear sky,0.0,0.0
161,Dikson,RU,2020-01-05 22:28:23,73.51,80.55,17.56,91,95,20.65,light snow,0.0,0.19
162,Magistralnyy,RU,2020-01-05 22:28:23,56.17,107.45,3.27,89,42,3.67,scattered clouds,0.0,0.0
163,Manavalakurichi,IN,2020-01-05 22:28:23,8.13,77.3,80.6,94,40,25.21,mist,0.0,0.0
164,Bassano,CA,2020-01-05 22:28:23,50.79,-112.47,28.99,76,0,1.99,clear sky,0.0,0.0
165,Novorzhev,RU,2020-01-05 22:28:23,57.03,29.33,26.94,90,6,4.52,clear sky,0.0,0.0
166,Tapaua,RU,2020-01-05 22:28:23,57.03,29.33,26.94,90,6,4.52,clear sky,0.0,0.0
167,Ucluelet,CA,2020-01-05 22:28:24,48.94,-125.55,46.0,70,20,13.87,few clouds,0.0,0.0
168,Kodiak,US,2020-01-05 22:28:24,39.95,-94.76,50.0,42,1,19.46,clear sky,0.0,0.0
169,Liverpool,GB,2020-01-05 22:28:24,53.41,-2.98,48.2,81,53,8.05,broken clouds,0.0,0.0
170,Condega,NI,2020-01-05 22:28:24,13.36,-86.4,75.2,60,20,18.34,few clouds,0.0,0.0
171,Fort-Shevchenko,KZ,2020-01-05 22:28:25,44.51,50.26,30.38,57,100,6.53,overcast clouds,0.0,0.0
172,Dongsheng,CN,2020-01-05 22:28:25,29.72,112.52,47.39,93,100,7.16,overcast clouds,0.0,0.0
173,Phonhong,LA,2020-01-05 22:28:25,18.5,102.42,67.17,84,0,0.85,clear sky,0.0,0.0
174,Manono,CD,2020-01-05 22:28:25,-7.3,27.4,69.87,95,100,1.3,overcast clouds,0.0,0.0
175,Barcelos,BR,2020-01-05 22:28:25,-0.97,-62.93,90.72,53,76,2.73,broken clouds,0.0,0.0
176,Turlock,US,2020-01-05 22:28:07,37.49,-120.85,60.8,44,1,18.34,clear sky,0.0,0.0
177,Grand River South East,US,2020-01-05 22:28:07,37.49,-120.85,60.8,44,1,18.34,clear sky,0.0,0.0
178,Peleduy,RU,2020-01-05 22:28:26,59.63,112.75,13.48,93,100,13.38,light snow,0.0,0.81
179,Mabaruma,GY,2020-01-05 22:28:26,8.2,-59.78,80.8,67,64,5.41,broken clouds,0.0,0.0
180,Esperance,AU,2020-01-05 22:28:26,-33.86,121.89,66.2,52,33,20.8,scattered clouds,0.0,0.0
181,Hamilton,CA,2020-01-05 22:23:43,43.26,-79.87,35.6,80,90,14.99,overcast clouds,0.0,0.0
182,Maykain,CA,2020-01-05 22:23:43,43.26,-79.87,35.6,80,90,14.99,overcast clouds,0.0,0.0
183,Ilebo,CD,2020-01-05 22:28:27,-4.33,20.59,69.46,97,100,0.25,overcast clouds,0.0,0.0
184,Manta,RO,2020-01-05 22:24:20,45.1,24.1,30.11,61,0,1.43,clear sky,0.0,0.0
185,Oranjemund,ZA,2020-01-05 22:24:05,-28.55,16.43,62.89,91,0,12.39,clear sky,0.0,0.0
186,Comodoro Rivadavia,AR,2020-01-05 22:28:27,-45.87,-67.48,73.4,28,100,18.34,overcast clouds,0.0,0.0
187,College,US,2020-01-05 22:28:28,64.86,-147.8,-14.01,73,95,1.25,overcast clouds,0.0,0.0
188,Palmer,AU,2020-01-05 22:28:28,-34.85,139.16,66.99,51,1,4.7,clear sky,0.0,0.0
189,Mandeville,US,2020-01-05 22:26:22,30.36,-90.07,64.99,42,1,3.36,clear sky,0.0,0.0
190,Kenai,US,2020-01-05 22:28:28,60.55,-151.26,1.99,76,40,6.93,scattered clouds,0.0,0.0
191,Boa Vista,BR,2020-01-05 22:27:26,2.82,-60.67,91.4,41,0,8.05,clear sky,0.0,0.0
192,Sargatskoye,RU,2020-01-05 22:28:29,55.6,73.49,13.23,94,87,10.76,overcast clouds,0.0,0.0
193,Sao Jose Da Coroa Grande,BR,2020-01-05 22:28:29,-8.9,-35.15,80.53,73,100,11.92,overcast clouds,0.0,0.0
194,Katsiveli,BR,2020-01-05 22:28:29,-8.9,-35.15,80.53,73,100,11.92,overcast clouds,0.0,0.0
195,Port Blair,IN,2020-01-05 22:28:29,11.67,92.75,80.74,78,0,13.67,clear sky,0.0,0.0
196,Olinda,AU,2020-01-05 22:24:44,-37.84,145.39,57.0,100,90,4.7,light rain,0.0,0.0
197,Hithadhoo,MV,2020-01-05 22:27:59,-0.6,73.08,81.48,78,100,11.25,overcast clouds,0.0,0.0
198,Sinnar,IN,2020-01-05 22:28:30,19.85,74.0,59.22,52,0,5.14,clear sky,0.0,0.0
199,Avera,US,2020-01-05 22:28:30,33.19,-82.53,57.2,40,1,6.93,clear sky,0.0,0.0
200,Victoria,BN,2020-01-05 22:28:30,5.28,115.24,80.6,83,75,6.93,broken clouds,0.0,0.0
201,Hailar,CN,2020-01-05 22:28:30,49.2,119.7,11.48,91,100,2.28,light snow,0.0,0.13
202,Gobabis,NA,2020-01-05 22:28:31,-22.45,18.97,76.28,47,96,12.75,overcast clouds,0.0,0.0
203,Olafsvik,NA,2020-01-05 22:28:31,-22.45,18.97,76.28,47,96,12.75,overcast clouds,0.0,0.0
204,Issoire,FR,2020-01-05 22:28:31,45.54,3.25,32.0,95,0,9.17,clear sky,0.0,0.0
205,The Pas,CA,2020-01-05 22:26:08,53.82,-101.24,10.4,78,90,12.75,light snow,0.0,0.0
206,Yugorsk,RU,2020-01-05 22:28:31,61.32,63.33,16.34,94,100,4.45,overcast clouds,0.0,0.0
207,Narsaq,GL,2020-01-05 22:28:32,60.91,-46.05,19.4,52,40,12.75,scattered clouds,0.0,0.0
208,Gat,SN,2020-01-05 22:28:32,14.69,-16.54,75.2,27,0,10.58,clear sky,0.0,0.0
209,Airai,TL,2020-01-05 22:28:32,-8.93,125.41,69.42,84,100,5.26,overcast clouds,0.0,0.0
210,Naze,NG,2020-01-05 22:28:32,5.43,7.07,75.2,73,82,4.21,dust,0.0,0.0
211,Teya,MX,2020-01-05 22:28:32,21.05,-89.07,77.0,57,75,9.17,broken clouds,0.0,0.0
212,Ahuimanu,US,2020-01-05 22:28:33,21.44,-157.84,80.6,69,75,12.75,broken clouds,0.0,0.0
213,Tuatapere,NZ,2020-01-05 22:24:18,-46.13,167.69,50.0,76,100,25.99,light rain,2.13,0.0
214,Gornopravdinsk,RU,2020-01-05 22:28:33,60.06,69.92,23.05,95,98,7.54,light snow,0.0,0.19
215,Qaanaaq,GL,2020-01-05 22:28:33,77.48,-69.36,-25.65,47,0,4.12,clear sky,0.0,0.0
216,Kandrian,PG,2020-01-05 22:28:33,-6.21,149.55,76.44,90,94,1.59,overcast clouds,0.0,0.0
217,Burnie,AU,2020-01-05 22:28:33,-41.05,145.91,57.06,78,0,12.95,clear sky,0.0,0.0
218,Ahar,IR,2020-01-05 22:28:34,38.48,47.07,23.76,83,0,4.61,clear sky,0.0,0.0
219,Liwale,TZ,2020-01-05 22:28:34,-9.8,37.92,71.85,83,100,2.89,overcast clouds,0.0,0.0
220,Grindavik,IS,2020-01-05 22:28:34,63.84,-22.43,37.4,86,90,9.17,shower rain,0.0,0.0
221,Bosobolo,CD,2020-01-05 22:28:34,4.19,19.88,77.14,38,5,0.54,clear sky,0.0,0.0
222,Guerrero Negro,MX,2020-01-05 22:28:34,27.97,-114.04,72.99,23,0,7.16,clear sky,0.0,0.0
223,Twentynine Palms,US,2020-01-05 22:24:24,34.14,-116.05,73.4,27,1,9.17,clear sky,0.0,0.0
224,Sobolevo,RU,2020-01-05 22:28:35,54.43,31.9,26.76,81,16,6.55,few clouds,0.0,0.0
225,Karratha,AU,2020-01-05 22:28:35,-20.74,116.85,84.25,69,100,10.11,moderate rain,3.25,0.0
226,Mantua,IT,2020-01-05 22:28:35,45.16,10.79,44.01,87,0,6.93,clear sky,0.0,0.0
227,Cherskiy,RU,2020-01-05 22:28:35,68.75,161.3,-7.71,61,5,5.35,clear sky,0.0,0.0
228,Attawapiskat,RU,2020-01-05 22:28:35,68.75,161.3,-7.71,61,5,5.35,clear sky,0.0,0.0
229,Sangar,RU,2020-01-05 22:24:46,63.92,127.47,-7.46,90,100,11.95,overcast clouds,0.0,0.0
230,Fortuna,US,2020-01-05 22:28:36,40.6,-124.16,57.0,71,40,10.29,scattered clouds,0.0,0.0
231,Lavumisa,ZA,2020-01-05 22:28:36,-27.31,31.88,72.54,93,4,4.29,light rain,0.13,0.0
232,Mecca,SA,2020-01-05 22:25:35,21.43,39.83,59.47,55,0,6.87,clear sky,0.0,0.0
233,Puerto Del Rosario,ES,2020-01-05 22:28:37,28.5,-13.86,64.4,72,20,10.29,few clouds,0.0,0.0
234,Manokwari,ID,2020-01-05 22:28:37,-0.87,134.08,74.62,76,82,3.29,broken clouds,0.0,0.0
235,Arraial Do Cabo,BR,2020-01-05 22:28:37,-22.97,-42.02,78.8,83,75,5.82,broken clouds,0.0,0.0
236,Doha,QA,2020-01-05 22:28:37,25.29,51.53,62.6,72,100,9.17,overcast clouds,0.0,0.0
237,Miraflores,PE,2020-01-05 22:28:37,-16.39,-71.52,60.8,63,40,12.75,scattered clouds,0.0,0.0
238,Kavaratti,IN,2020-01-05 22:28:38,10.57,72.64,79.97,63,0,3.85,clear sky,0.0,0.0
239,Severo-Kurilsk,RU,2020-01-05 22:28:38,50.68,156.12,19.35,93,100,14.85,snow,0.0,7.06
240,Nizhneyansk,RU,2020-01-05 22:28:38,50.68,156.12,19.35,93,100,14.85,snow,0.0,0.0
241,Hovd,NO,2020-01-05 22:28:38,63.83,10.7,45.0,86,75,16.11,broken clouds,0.0,0.0
242,Ambilobe,MG,2020-01-05 22:28:38,-13.19,49.05,78.42,86,100,1.59,overcast clouds,0.0,0.0
243,Livingstone,ZW,2020-01-05 22:28:39,-17.85,25.86,69.71,68,100,2.33,light rain,0.31,0.0
244,Ojinaga,US,2020-01-05 22:28:39,29.56,-104.41,66.2,20,1,0.25,clear sky,0.0,0.0
245,Namatanai,PG,2020-01-05 22:28:39,-3.66,152.44,82.56,76,88,5.79,overcast clouds,0.0,0.0
246,Pasinler,TR,2020-01-05 22:28:39,39.98,41.67,10.4,92,75,4.7,broken clouds,0.0,0.0
247,Kempsey,AU,2020-01-05 22:28:39,-31.08,152.84,75.99,74,92,3.0,light rain,0.31,0.0
248,The Valley,AI,2020-01-05 22:28:40,18.22,-63.06,80.6,73,20,6.93,few clouds,0.0,0.0
249,Fairbanks,US,2020-01-05 22:28:40,64.84,-147.72,-14.01,73,91,2.08,overcast clouds,0.0,0.0
250,Sorong,ID,2020-01-05 22:28:40,-0.86,131.25,73.8,98,100,1.99,light rain,0.31,0.0
251,Taoudenni,ML,2020-01-05 22:28:40,22.68,-3.98,58.93,17,30,10.54,scattered clouds,0.0,0.0
252,Port Macquarie,AU,2020-01-05 22:28:40,-31.43,152.91,75.99,69,90,6.93,overcast clouds,0.0,0.0
253,Semey,KZ,2020-01-05 22:28:41,50.41,80.25,6.57,81,0,7.99,clear sky,0.0,0.0
254,Azua,DO,2020-01-05 22:28:41,18.45,-70.73,82.4,65,20,11.41,few clouds,0.0,0.0
255,Berdigestyakh,RU,2020-01-05 22:28:41,62.1,126.7,-1.73,98,100,3.49,light snow,0.0,0.13
256,Itai,BR,2020-01-05 22:28:41,-23.42,-49.09,77.0,79,30,2.17,moderate rain,5.38,0.0
257,Chuy,UY,2020-01-05 22:28:41,-33.69,-53.46,75.31,63,0,13.76,clear sky,0.0,0.0
258,Cidreira,BR,2020-01-05 22:28:41,-30.17,-50.22,74.61,82,0,19.3,clear sky,0.0,0.0
259,Port Hardy,CA,2020-01-05 22:28:42,50.7,-127.42,39.2,86,40,8.05,scattered clouds,0.0,0.0
260,Borogontsy,RU,2020-01-05 22:28:42,62.67,131.17,-5.8,98,100,4.56,light snow,0.0,0.25
261,Upernavik,GL,2020-01-05 22:28:42,72.79,-56.15,-29.87,88,100,11.86,overcast clouds,0.0,0.0
262,Leningradskiy,RU,2020-01-05 22:28:42,69.38,178.42,-11.0,51,0,1.83,clear sky,0.0,0.0
263,Batouri,CM,2020-01-05 22:28:42,4.44,14.36,73.62,32,0,3.27,clear sky,0.0,0.0
264,Qaqortoq,GL,2020-01-05 22:28:43,60.72,-46.03,19.4,52,40,12.75,scattered clouds,0.0,0.0
265,Mys Shmidta,GL,2020-01-05 22:28:43,60.72,-46.03,19.4,52,40,12.75,scattered clouds,0.0,0.0
266,Kaeo,NZ,2020-01-05 22:28:43,-35.1,173.78,68.0,100,100,1.99,light rain,0.19,0.0
267,Champerico,MX,2020-01-05 22:28:43,16.38,-93.6,75.2,53,40,21.92,scattered clouds,0.0,0.0
268,Juifang,MX,2020-01-05 22:28:43,16.38,-93.6,75.2,53,40,21.92,scattered clouds,0.0,0.0
269,Tasiilaq,GL,2020-01-05 22:28:43,65.61,-37.64,24.06,93,100,30.44,snow,0.0,3.94
270,Mehran,IR,2020-01-05 22:28:44,33.12,46.17,30.2,86,0,4.7,clear sky,0.0,0.0
271,Hobbs,US,2020-01-05 22:26:45,32.7,-103.14,60.8,19,5,8.05,clear sky,0.0,0.0
272,Viedma,AR,2020-01-05 22:24:01,-40.81,-62.99,67.3,62,76,21.85,broken clouds,0.0,0.0
273,Chicama,PE,2020-01-05 22:28:44,-7.84,-79.15,73.4,78,20,9.17,few clouds,0.0,0.0
274,Medicine Hat,CA,2020-01-05 22:28:44,50.04,-110.68,34.0,59,20,12.75,few clouds,0.0,0.0
275,Tabiauea,CA,2020-01-05 22:28:44,50.04,-110.68,34.0,59,20,12.75,few clouds,0.0,0.0
276,Innisfail,AU,2020-01-05 22:28:45,-17.52,146.03,75.99,78,12,1.01,light rain,0.25,0.0
277,Coquimbo,CL,2020-01-05 22:28:45,-29.95,-71.34,66.2,72,75,5.82,broken clouds,0.0,0.0
278,Cabo San Lucas,MX,2020-01-05 22:28:45,22.89,-109.91,80.01,61,40,4.7,scattered clouds,0.0,0.0
279,Codajas,BR,2020-01-05 22:28:45,-3.84,-62.06,92.71,52,43,2.15,scattered clouds,0.0,0.0
280,Owasso,US,2020-01-05 22:28:46,36.27,-95.86,61.0,29,1,6.93,clear sky,0.0,0.0
281,Nanortalik,GL,2020-01-05 22:28:46,60.14,-45.24,26.4,70,0,11.77,clear sky,0.0,0.0
282,Vilcun,CL,2020-01-05 22:28:46,-38.65,-72.23,61.0,82,75,14.99,shower rain,0.0,0.0
283,Shitanjing,CN,2020-01-05 22:28:46,39.23,106.34,24.01,47,74,0.92,broken clouds,0.0,0.0
284,Bac Lieu,CN,2020-01-05 22:28:46,39.23,106.34,24.01,47,74,0.92,broken clouds,0.0,0.0
285,Amapa,HN,2020-01-05 22:28:46,15.09,-87.97,68.0,94,90,5.82,overcast clouds,0.0,0.0
286,Waddan,LY,2020-01-05 22:28:47,29.16,16.14,49.41,48,0,9.89,clear sky,0.0,0.0
287,Benidorm,ES,2020-01-05 22:28:42,38.54,-0.13,51.01,87,0,4.7,clear sky,0.0,0.0
288,Moree,AU,2020-01-05 22:28:47,-29.46,149.84,82.4,45,0,24.16,clear sky,0.0,0.0
289,Wanning,AT,2020-01-05 22:28:47,48.64,13.53,34.0,89,75,1.12,broken clouds,0.0,0.0
290,Longyearbyen,NO,2020-01-05 22:28:47,78.22,15.63,-2.2,77,20,9.17,few clouds,0.0,0.0
291,Medvedovskaya,RU,2020-01-05 22:28:48,45.45,39.03,44.01,80,83,2.24,broken clouds,0.0,0.0
292,Christchurch,NZ,2020-01-05 22:28:48,-43.53,172.64,70.0,32,0,17.22,clear sky,0.0,0.0
293,Vardo,US,2020-01-05 22:28:48,39.62,-77.74,37.4,55,90,4.7,overcast clouds,0.0,0.0
294,Aksarka,RU,2020-01-05 22:28:48,66.56,67.8,15.76,85,0,17.25,clear sky,0.0,0.0
295,Altay,CN,2020-01-05 22:28:48,47.83,88.13,12.79,44,0,6.31,clear sky,0.0,0.0
296,Srednekolymsk,RU,2020-01-05 22:28:49,67.46,153.71,-9.17,78,10,1.77,clear sky,0.0,0.0
297,Barra Patuca,HN,2020-01-05 22:28:49,15.8,-84.28,81.25,74,0,12.44,light rain,1.63,0.0
298,Mahibadhoo,MV,2020-01-05 22:28:49,3.78,72.97,81.55,80,83,12.77,light rain,0.88,0.0
299,Ambovombe,MG,2020-01-05 22:28:49,-25.18,46.09,72.72,84,0,7.49,clear sky,0.0,0.0
300,Lavrentiya,RU,2020-01-05 22:28:49,65.58,-170.99,-12.98,87,19,8.32,few clouds,0.0,0.0
301,Baruun-Urt,MN,2020-01-05 22:28:50,46.68,113.28,3.25,90,100,6.06,overcast clouds,0.0,0.0
302,Roma,IT,2020-01-05 22:26:03,41.89,12.48,48.0,39,0,6.93,clear sky,0.0,0.0
303,Severnoye,RU,2020-01-05 22:28:50,54.09,52.54,24.08,97,92,4.99,light snow,0.0,0.31
304,Chara,GR,2020-01-05 22:28:50,39.42,22.43,42.01,56,75,12.75,broken clouds,0.0,0.0
305,Tahta,GR,2020-01-05 22:28:50,39.42,22.43,42.01,56,75,12.75,broken clouds,0.0,0.0
306,Vannes,FR,2020-01-05 22:28:51,47.66,-2.76,44.01,93,0,6.93,clear sky,0.0,0.0
307,Utiroa,FR,2020-01-05 22:28:51,47.66,-2.76,44.01,93,0,6.93,clear sky,0.0,0.0
308,Tocopilla,CL,2020-01-05 22:28:51,-22.09,-70.2,66.52,45,0,12.19,clear sky,0.0,0.0
309,Linhares,BR,2020-01-05 22:28:51,-19.38,-40.06,78.51,87,100,4.25,overcast clouds,0.0,0.0
310,Poya,NC,2020-01-05 22:28:51,-21.35,165.16,76.62,73,0,9.19,clear sky,0.0,0.0
311,Muheza,TZ,2020-01-05 22:28:52,-5.18,38.79,75.27,85,95,5.73,overcast clouds,0.0,0.0
312,Codrington,AU,2020-01-05 22:28:52,-28.95,153.24,78.8,73,40,6.93,scattered clouds,0.0,0.0
313,Sur,OM,2020-01-05 22:28:52,22.57,59.53,69.24,74,33,13.53,scattered clouds,0.0,0.0
314,Saint-Augustin,CA,2020-01-05 22:28:52,45.63,-73.98,21.0,67,20,9.17,few clouds,0.0,0.0
315,Benguela,AO,2020-01-05 22:28:52,-12.58,13.4,78.98,83,34,5.35,scattered clouds,0.0,0.0
316,Necochea,AR,2020-01-05 22:27:06,-38.55,-58.74,63.0,92,92,8.01,overcast clouds,0.0,0.0
317,Caucaia,BR,2020-01-05 22:28:53,-3.73,-38.66,86.0,74,20,5.82,few clouds,0.0,0.0
318,Kununurra,AU,2020-01-05 22:28:53,-15.77,128.74,78.8,94,75,3.36,broken clouds,0.0,0.0
319,Nakonde,ZM,2020-01-05 22:28:53,-9.33,32.75,63.21,91,100,1.61,overcast clouds,0.0,0.0
320,Palabuhanratu,ZM,2020-01-05 22:28:53,-9.33,32.75,63.21,91,100,1.61,overcast clouds,0.0,0.0
321,Broome,GB,2020-01-05 22:28:53,52.47,1.45,46.4,81,75,10.29,broken clouds,0.0,0.0
322,El Faiyum,GB,2020-01-05 22:28:53,52.47,1.45,46.4,81,75,10.29,broken clouds,0.0,0.0
323,Shenkursk,RU,2020-01-05 22:28:54,62.11,42.91,14.02,93,0,5.17,clear sky,0.0,0.0
324,Ituni,RU,2020-01-05 22:28:54,62.11,42.91,14.02,93,0,5.17,clear sky,0.0,0.0
325,Endicott,US,2020-01-05 22:28:54,42.1,-76.05,33.8,73,90,5.82,overcast clouds,0.0,0.0
326,Lerwick,GB,2020-01-05 22:24:03,60.15,-1.15,50.0,100,100,18.34,light rain,0.0,0.0
327,Lasa,CY,2020-01-05 22:26:52,34.92,32.53,53.6,87,90,8.05,overcast clouds,0.0,0.0
328,Ampanihy,MG,2020-01-05 22:28:55,-24.69,44.75,73.85,79,0,9.01,clear sky,0.0,0.0
329,Tateyama,JP,2020-01-05 22:28:55,36.66,137.31,34.0,54,20,2.24,few clouds,0.0,0.0
330,Shelburne,CA,2020-01-05 22:28:55,44.08,-80.2,33.8,80,90,2.24,overcast clouds,0.0,0.0
331,San Jeronimo,PE,2020-01-05 22:28:55,-13.65,-73.37,61.63,67,87,6.46,light rain,2.75,0.0
332,San Patricio,PY,2020-01-05 22:28:56,-26.98,-56.83,93.25,32,24,2.8,few clouds,0.0,0.0
333,Srandakan,ID,2020-01-05 22:28:56,-7.94,110.25,74.89,87,15,3.09,light rain,1.44,0.0
334,Aberfoyle,GB,2020-01-05 22:28:56,56.18,-4.38,52.0,87,75,20.8,broken clouds,0.0,0.0
335,Binga,ZW,2020-01-05 22:28:56,-17.62,27.34,78.6,73,100,2.8,overcast clouds,0.0,0.0
336,Atar,MR,2020-01-05 22:28:56,20.52,-13.05,56.75,22,0,8.41,clear sky,0.0,0.0
337,Matsanga,MR,2020-01-05 22:28:56,20.52,-13.05,56.75,22,0,8.41,clear sky,0.0,0.0
338,Bairiki,MR,2020-01-05 22:28:56,20.52,-13.05,56.75,22,0,8.41,clear sky,0.0,0.0
339,Havre-Saint-Pierre,CA,2020-01-05 22:28:57,50.23,-63.6,12.2,72,1,5.82,clear sky,0.0,0.0
340,Abiy Adi,CA,2020-01-05 22:28:57,50.23,-63.6,12.2,72,1,5.82,clear sky,0.0,0.0
341,Umzimvubu,CA,2020-01-05 22:28:57,50.23,-63.6,12.2,72,1,5.82,clear sky,0.0,0.0
342,Awbari,LY,2020-01-05 22:28:58,26.59,12.77,46.02,32,0,5.48,clear sky,0.0,0.0
343,Resistencia,AR,2020-01-05 22:28:58,-27.45,-58.99,93.2,43,0,5.82,clear sky,0.0,0.0
344,Provideniya,RU,2020-01-05 22:28:58,64.42,-173.23,-10.43,82,100,9.08,overcast clouds,0.0,0.0
345,Raver,IN,2020-01-05 22:28:58,21.25,76.04,59.29,47,0,6.82,clear sky,0.0,0.0
346,Tall Kayf,TR,2020-01-05 22:28:59,37.08,41.07,41.0,93,90,13.87,overcast clouds,0.0,0.0
347,Kuytun,RU,2020-01-05 22:28:59,54.34,101.51,6.55,92,81,4.7,broken clouds,0.0,0.0
348,Asau,RU,2020-01-05 22:28:59,54.34,101.51,6.55,92,81,4.7,broken clouds,0.0,0.0
349,Lehututu,BW,2020-01-05 22:28:59,-23.92,21.83,83.08,39,89,5.53,overcast clouds,0.0,0.0
350,Cayenne,GF,2020-01-05 22:28:59,4.94,-52.33,78.8,88,90,2.24,overcast clouds,0.0,0.0
351,Pokhara,NP,2020-01-05 22:29:00,28.21,83.99,44.29,75,54,2.48,broken clouds,0.0,0.0
352,Muhos,FI,2020-01-05 22:29:00,64.81,26.0,26.6,92,90,10.29,light snow,0.0,0.0
353,Hambantota,LK,2020-01-05 22:29:00,6.12,81.12,75.2,100,13,5.82,few clouds,0.0,0.0
354,Galgani,LK,2020-01-05 22:29:00,6.12,81.12,75.2,100,13,5.82,few clouds,0.0,0.0
355,Bethel,US,2020-01-05 22:29:00,60.79,-161.76,-14.8,75,1,6.93,clear sky,0.0,0.0
356,Auch,FR,2020-01-05 22:29:01,43.65,0.59,36.0,100,90,4.7,fog,0.0,0.0
357,Byron Bay,AU,2020-01-05 22:27:20,-28.65,153.62,80.6,78,40,12.75,scattered clouds,0.0,0.0
358,Slave Lake,CA,2020-01-05 22:29:01,55.28,-114.77,17.6,78,90,6.93,overcast clouds,0.0,0.0
359,Ilulissat,GL,2020-01-05 22:29:01,69.22,-51.1,8.6,60,100,6.93,overcast clouds,0.0,0.0
360,Ruma,RS,2020-01-05 22:29:02,45.01,19.82,30.2,74,0,13.87,clear sky,0.0,0.0
361,Wuda,CN,2020-01-05 22:29:02,39.5,106.72,18.88,88,39,6.89,scattered clouds,0.0,0.0
362,Vengerovo,RU,2020-01-05 22:29:02,55.68,76.74,11.61,95,96,8.52,overcast clouds,0.0,0.0
363,Arrecife,RU,2020-01-05 22:29:02,55.68,76.74,11.61,95,96,8.52,overcast clouds,0.0,0.0
364,Serebryansk,KZ,2020-01-05 22:29:02,49.68,83.3,3.36,83,0,2.17,clear sky,0.0,0.0
365,Hobyo,SO,2020-01-05 22:29:03,5.35,48.53,78.58,79,34,12.19,scattered clouds,0.0,0.0
366,Sompeta,IN,2020-01-05 22:29:03,18.93,84.6,64.0,86,0,3.6,clear sky,0.0,0.0
367,Bilibino,RU,2020-01-05 22:29:03,68.06,166.44,-10.95,65,0,2.04,clear sky,0.0,0.0
368,Ossora,RU,2020-01-05 22:29:03,59.24,163.07,7.0,96,96,4.07,overcast clouds,0.0,0.0
369,Lundazi,ZM,2020-01-05 22:29:03,-12.29,33.17,66.79,90,100,0.45,overcast clouds,0.0,0.0
370,Progreso,UY,2020-01-05 22:29:04,-34.68,-56.22,78.8,50,40,11.41,scattered clouds,0.0,0.0
371,Valky,UA,2020-01-05 22:29:04,49.83,35.6,32.0,96,40,6.71,scattered clouds,0.0,0.0
372,Sacramento,US,2020-01-05 22:24:21,38.58,-121.49,66.2,44,1,3.36,clear sky,0.0,0.0
373,Kruisfontein,ZA,2020-01-05 22:29:04,-34.0,24.73,65.17,83,100,5.23,light rain,0.19,0.0
374,Nynashamn,SE,2020-01-05 22:28:21,58.9,17.95,39.99,93,100,11.41,mist,0.0,0.0
375,Karaul,SE,2020-01-05 22:28:21,58.9,17.95,39.99,93,100,11.41,mist,0.0,0.0
376,Neuquen,AR,2020-01-05 22:29:05,-38.95,-68.06,73.4,25,7,21.92,clear sky,0.0,0.0
377,Kirakira,SB,2020-01-05 22:29:05,-10.46,161.92,80.55,85,100,7.85,overcast clouds,0.0,0.0
378,Salalah,OM,2020-01-05 22:29:05,17.01,54.1,75.2,78,75,3.36,broken clouds,0.0,0.0
379,Caravelas,BR,2020-01-05 22:29:05,-17.73,-39.27,79.48,84,94,8.79,overcast clouds,0.0,0.0
380,Altea,ES,2020-01-05 22:29:06,38.6,-0.05,51.01,87,0,4.7,clear sky,0.0,0.0
381,High Level,CA,2020-01-05 22:29:06,58.52,-117.13,-2.2,84,90,5.82,light snow,0.0,0.0
382,Batagay-Alyta,RU,2020-01-05 22:29:06,67.8,130.41,-22.11,79,17,4.05,few clouds,0.0,0.0
383,Nelson Bay,AU,2020-01-05 22:29:06,-32.72,152.14,75.2,60,40,13.87,scattered clouds,0.0,0.0
384,Dukat,AL,2020-01-05 22:29:06,40.25,19.57,43.0,34,20,5.01,few clouds,0.0,0.0
385,Nisia Floresta,BR,2020-01-05 22:29:06,-6.09,-35.21,82.4,74,40,12.75,scattered clouds,0.0,0.0
386,Maniwaki,CA,2020-01-05 22:29:07,46.38,-75.98,15.87,83,0,3.62,clear sky,0.0,0.0
387,Fort Nelson,CA,2020-01-05 22:29:07,58.81,-122.69,-9.4,76,75,12.75,light snow,0.0,0.0
388,Beringovskiy,RU,2020-01-05 22:29:07,63.05,179.32,-7.46,79,89,16.67,overcast clouds,0.0,0.0
389,Drexel Heights,US,2020-01-05 22:29:07,32.14,-111.03,75.0,18,1,0.78,clear sky,0.0,0.0
390,Candolim,IN,2020-01-05 22:29:07,15.52,73.76,66.96,79,0,1.68,clear sky,0.0,0.0
391,Sao Gabriel Da Cachoeira,BR,2020-01-05 22:29:08,-0.13,-67.09,89.56,56,89,3.91,overcast clouds,0.0,0.0
392,Anchorage,US,2020-01-05 22:27:42,61.22,-149.89,-2.0,76,1,4.18,haze,0.0,0.0
393,Riorges,FR,2020-01-05 22:29:08,46.04,4.03,34.0,92,0,2.24,clear sky,0.0,0.0
394,Akdepe,TM,2020-01-05 22:29:08,42.05,59.39,26.6,85,43,2.24,scattered clouds,0.0,0.0
395,Boyolangu,ID,2020-01-05 22:29:08,-8.09,111.9,74.79,91,91,1.68,light rain,2.25,0.0
396,Ekibastuz,KZ,2020-01-05 22:29:09,51.72,75.32,17.71,97,63,7.23,broken clouds,0.0,0.0
397,Korla,KZ,2020-01-05 22:29:09,51.72,75.32,17.71,97,63,7.23,broken clouds,0.0,0.0
398,Fez,MA,2020-01-05 22:29:09,34.03,-5.02,42.8,81,0,5.82,clear sky,0.0,0.0
399,Clyde River,CA,2020-01-05 22:29:09,70.47,-68.59,-38.2,52,1,10.29,clear sky,0.0,0.0
400,Lazaro Cardenas,MX,2020-01-05 22:29:09,28.39,-105.62,71.01,20,5,9.17,clear sky,0.0,0.0
401,Sosnovo-Ozerskoye,RU,2020-01-05 22:29:09,52.53,111.54,-2.7,99,20,5.44,few clouds,0.0,0.0
402,Bayburt,TR,2020-01-05 22:29:10,40.26,40.22,11.17,94,28,4.85,scattered clouds,0.0,0.0
403,Sorvag,TR,2020-01-05 22:29:10,40.26,40.22,11.17,94,28,4.85,scattered clouds,0.0,0.0
404,Cienaga,CO,2020-01-05 22:29:10,11.01,-74.25,86.0,58,20,17.22,few clouds,0.0,0.0
405,Tornio,FI,2020-01-05 22:29:10,61.12,27.27,24.01,73,100,6.93,overcast clouds,0.0,0.0
406,Clyde,NZ,2020-01-05 22:29:10,-45.19,169.32,54.0,45,71,4.0,light rain,0.5,0.0
407,Sambava,MG,2020-01-05 22:29:11,-14.27,50.17,71.55,98,100,2.93,moderate rain,4.5,0.0
408,Samusu,MG,2020-01-05 22:29:11,-14.27,50.17,71.55,98,100,2.93,moderate rain,0.0,0.0
409,Puerto Escondido,MX,2020-01-05 22:29:11,15.86,-97.07,84.2,62,5,6.93,clear sky,0.0,0.0
410,Comarapa,BO,2020-01-05 22:29:11,-17.91,-64.53,74.44,58,74,7.36,broken clouds,0.0,0.0
411,Anqing,CN,2020-01-05 22:29:11,30.51,117.04,52.54,90,100,5.44,overcast clouds,0.0,0.0
412,Tomakomai,JP,2020-01-05 22:29:12,42.65,141.6,28.4,85,75,9.17,light shower snow,0.0,0.0
413,Margate,AU,2020-01-05 22:29:12,-43.03,147.26,63.0,51,40,4.7,scattered clouds,0.0,0.0
414,Vestmannaeyjar,IS,2020-01-05 22:29:12,63.44,-20.27,43.03,70,100,19.98,light rain,0.13,0.0
415,Omboue,GA,2020-01-05 22:29:12,-1.57,9.26,77.52,87,100,2.04,overcast clouds,0.0,0.0
416,Morro Bay,US,2020-01-05 22:29:12,35.37,-120.85,66.2,42,1,8.05,clear sky,0.0,0.0
417,Andujar,ES,2020-01-05 22:25:35,38.04,-4.05,45.0,78,0,1.99,clear sky,0.0,0.0
418,Puerto Berrio,CO,2020-01-05 22:29:13,6.49,-74.4,85.75,57,100,4.45,overcast clouds,0.0,0.0
419,Grand Gaube,MU,2020-01-05 22:29:13,-20.01,57.66,73.4,100,75,10.29,moderate rain,0.0,0.0
420,Jalu,LY,2020-01-05 22:27:40,29.03,21.55,50.79,48,0,12.62,clear sky,0.0,0.0
421,Nguiu,LY,2020-01-05 22:27:40,29.03,21.55,50.79,48,0,12.62,clear sky,0.0,0.0
422,Cap Malheureux,MU,2020-01-05 22:29:13,-19.98,57.61,73.4,100,75,10.29,moderate rain,0.0,0.0
423,Tenabo,MX,2020-01-05 22:29:14,20.04,-90.23,75.2,57,5,17.22,clear sky,0.0,0.0
424,Panguna,PG,2020-01-05 22:29:14,-6.32,155.48,76.05,82,9,1.45,clear sky,0.0,0.0
425,Filimonovo,RU,2020-01-05 22:29:14,54.21,39.6,27.86,90,100,5.5,overcast clouds,0.0,0.0
426,Saryg-Sep,RU,2020-01-05 22:29:14,51.49,95.55,-12.66,94,0,0.85,clear sky,0.0,0.0
427,Swansea,GB,2020-01-05 22:29:14,51.62,-3.95,46.4,87,90,8.05,overcast clouds,0.0,0.0
428,Constitucion,MX,2020-01-05 22:29:14,23.99,-104.67,68.0,10,5,2.68,clear sky,0.0,0.0
429,Mayo,CA,2020-01-05 22:29:15,63.59,-135.9,-23.8,67,75,3.36,light snow,0.0,0.0
430,Maxixe,MZ,2020-01-05 22:29:15,-23.86,35.35,79.34,80,0,14.29,clear sky,0.0,0.0
431,Longlac,MZ,2020-01-05 22:29:15,-23.86,35.35,79.34,80,0,14.29,clear sky,0.0,0.0
432,Pathein,MM,2020-01-05 22:29:15,16.78,94.73,76.73,80,87,8.1,overcast clouds,0.0,0.0
433,Ponta Delgada,PT,2020-01-05 22:29:15,37.73,-25.67,64.4,93,40,17.22,scattered clouds,0.0,0.0
434,Beyneu,KZ,2020-01-05 22:29:16,45.32,55.19,27.82,75,76,4.76,broken clouds,0.0,0.0
435,Sarangani,PH,2020-01-05 22:29:16,5.4,125.46,81.55,72,7,19.86,clear sky,0.0,0.0
436,Meyungs,PH,2020-01-05 22:29:16,5.4,125.46,81.55,72,7,19.86,clear sky,0.0,0.0
437,Portland,US,2020-01-05 22:29:16,43.66,-70.25,30.2,54,40,6.93,scattered clouds,0.0,0.0
438,Dingle,PH,2020-01-05 22:24:20,11.0,122.67,72.93,95,63,10.02,light rain,2.0,0.0
439,Sevsk,RU,2020-01-05 22:29:16,52.15,34.49,28.67,94,97,7.38,overcast clouds,0.0,0.0
440,Mergui,RU,2020-01-05 22:29:16,52.15,34.49,28.67,94,97,7.38,overcast clouds,0.0,0.0
441,Altamont,CA,2020-01-05 22:29:17,49.4,-98.5,30.2,54,1,11.41,clear sky,0.0,0.0
442,San Juan,AR,2020-01-05 22:26:58,-31.54,-68.53,97.75,20,42,12.75,scattered clouds,0.0,0.0
443,Cururupu,BR,2020-01-05 22:29:17,-1.82,-44.87,78.22,85,100,3.89,light rain,0.69,0.0
444,Bayan,CN,2020-01-05 22:29:17,36.1,102.26,15.89,62,100,2.82,overcast clouds,0.0,0.0
445,Fomboni,KM,2020-01-05 22:29:18,-12.28,43.74,83.46,77,100,10.36,overcast clouds,0.0,0.0
446,Bumba,CD,2020-01-05 22:29:18,2.18,22.47,73.65,62,100,2.86,overcast clouds,0.0,0.0
447,Honiara,SB,2020-01-05 22:29:18,-9.43,159.96,87.8,74,40,3.36,scattered clouds,0.0,0.0
448,Sao Filipe,CV,2020-01-05 22:29:18,14.9,-24.5,70.7,67,32,16.08,scattered clouds,0.0,0.0
449,Plouzane,FR,2020-01-05 22:29:18,48.38,-4.62,41.0,80,93,8.05,overcast clouds,0.0,0.0
450,Imbituba,BR,2020-01-05 22:29:19,-28.24,-48.67,77.0,83,20,6.93,few clouds,0.0,0.0
451,Bur Gabo,BR,2020-01-05 22:29:19,-28.24,-48.67,77.0,83,20,6.93,few clouds,0.0,0.0
452,Bucerias,MX,2020-01-05 22:29:19,20.76,-105.33,84.2,26,5,6.93,clear sky,0.0,0.0
453,Tura,RU,2020-01-05 22:29:19,64.27,100.22,12.61,87,100,8.97,light snow,0.0,0.25
454,Stephenville,CA,2020-01-05 22:29:19,48.55,-58.59,28.4,79,90,13.87,overcast clouds,0.0,0.0
455,San Quintin,PH,2020-01-05 22:29:19,17.54,120.52,67.23,81,39,6.53,scattered clouds,0.0,0.0
456,Kamenskoye,PH,2020-01-05 22:29:19,17.54,120.52,67.23,81,39,6.53,scattered clouds,0.0,0.0
457,Mount Gambier,AU,2020-01-05 22:25:19,-37.83,140.78,60.8,63,9,13.87,clear sky,0.0,0.0
458,Shingu,JP,2020-01-05 22:29:20,33.72,135.99,42.87,68,0,5.64,clear sky,0.0,0.0
459,Warkworth,NZ,2020-01-05 22:29:20,-36.4,174.66,69.01,59,38,27.51,scattered clouds,0.0,0.0
460,Khorramshahr,IR,2020-01-05 22:29:20,30.43,48.18,50.0,87,0,3.91,clear sky,0.0,0.0
461,Diffa,NE,2020-01-05 22:29:21,13.32,12.61,65.28,29,10,11.21,clear sky,0.0,0.0
462,Muroto,JP,2020-01-05 22:29:21,33.37,134.14,37.4,69,40,8.05,scattered clouds,0.0,0.0
463,Pacific Grove,US,2020-01-05 22:29:21,36.62,-121.92,62.01,51,1,9.44,clear sky,0.0,0.0
464,Keti Bandar,PK,2020-01-05 22:29:21,24.14,67.45,65.93,68,8,5.77,clear sky,0.0,0.0
465,Mogadishu,SO,2020-01-05 22:26:06,2.04,45.34,81.28,84,0,19.22,clear sky,0.0,0.0
466,Teguldet,RU,2020-01-05 22:29:22,57.31,88.17,22.41,94,100,7.94,light snow,0.0,0.19
467,Padang,ID,2020-01-05 22:29:22,-0.92,100.36,68.95,85,13,6.17,few clouds,0.0,0.0
468,Lebanon,US,2020-01-05 22:29:22,40.34,-76.42,37.0,51,90,11.41,overcast clouds,0.0,0.0
469,Dudinka,RU,2020-01-05 22:29:22,69.41,86.18,21.2,92,75,26.84,shower snow,0.0,0.0
470,Pimentel,BR,2020-01-05 22:24:35,-3.7,-45.5,78.84,91,100,3.33,moderate rain,3.38,0.0
471,Tezu,IN,2020-01-05 22:29:23,27.93,96.16,48.65,94,73,2.57,light rain,0.19,0.0
472,Walvis Bay,NA,2020-01-05 22:29:23,-22.95,14.51,63.0,82,19,6.93,few clouds,0.0,0.0
473,Kangaatsiaq,GL,2020-01-05 22:29:23,68.31,-53.46,9.07,94,100,25.14,light snow,0.0,0.44
474,Elizabeth City,US,2020-01-05 22:29:23,36.3,-76.22,48.2,52,1,8.05,clear sky,0.0,0.0
475,Belyy Yar,RU,2020-01-05 22:29:23,53.6,91.39,23.0,73,98,4.47,overcast clouds,0.0,0.0
476,Songea,TZ,2020-01-05 22:29:24,-10.68,35.65,71.6,83,20,5.82,few clouds,0.0,0.0
477,Tumannyy,TZ,2020-01-05 22:29:24,-10.68,35.65,71.6,83,20,5.82,few clouds,0.0,0.0
478,Sidi Ali,DZ,2020-01-05 22:29:24,36.1,0.42,47.66,87,0,3.06,clear sky,0.0,0.0
479,Tir Pol,DZ,2020-01-05 22:29:24,36.1,0.42,47.66,87,0,3.06,clear sky,0.0,0.0
480,Tucuma,DZ,2020-01-05 22:29:24,36.1,0.42,47.66,87,0,3.06,clear sky,0.0,0.0
481,Cukai,MY,2020-01-05 22:29:24,4.25,103.42,75.2,94,61,3.36,broken clouds,0.0,0.0
482,Padre Bernardo,MY,2020-01-05 22:29:24,4.25,103.42,75.2,94,61,3.36,broken clouds,0.0,0.0
483,Bukachacha,RU,2020-01-05 22:29:25,52.99,116.91,-0.69,92,63,2.98,broken clouds,0.0,0.0
484,Kerchevskiy,RU,2020-01-05 22:29:25,59.95,56.29,17.85,96,93,5.77,overcast clouds,0.0,0.0
485,Cosamaloapan,MX,2020-01-05 22:29:25,18.36,-95.8,66.0,81,84,8.99,light rain,0.19,0.0
486,Mount Pleasant,US,2020-01-05 22:29:25,33.16,-94.97,73.0,24,1,9.17,clear sky,0.0,0.0
487,Porbandar,IN,2020-01-05 22:29:26,21.64,69.61,71.94,52,0,17.72,clear sky,0.0,0.0
488,Warburton,AU,2020-01-05 22:29:26,-37.75,145.69,57.0,100,90,4.7,overcast clouds,0.0,0.0
489,San Esteban,HN,2020-01-05 22:29:26,15.21,-85.77,74.12,65,8,8.03,clear sky,0.0,0.0
490,Kropotkin,RU,2020-01-05 22:29:26,45.43,40.58,39.0,60,100,4.16,overcast clouds,0.0,0.0
491,Kurchum,KZ,2020-01-05 22:29:27,48.57,83.65,1.8,83,0,1.54,clear sky,0.0,0.0
492,Biak,ID,2020-01-05 22:29:27,-0.91,122.88,81.0,79,100,8.39,moderate rain,3.5,0.0
493,Polson,US,2020-01-05 22:29:27,47.69,-114.16,37.99,51,90,9.17,overcast clouds,0.0,0.0
494,Harper,US,2020-01-05 22:29:27,30.3,-99.24,75.2,20,1,10.29,clear sky,0.0,0.0
495,Lalomanu,US,2020-01-05 22:29:27,30.3,-99.24,75.2,20,1,10.29,clear sky,0.0,0.0
496,Haines Junction,CA,2020-01-05 22:29:27,60.75,-137.51,-11.18,90,1,3.36,clear sky,0.0,0.0
497,Ohara,JP,2020-01-05 22:29:28,35.12,135.83,36.0,74,4,1.12,clear sky,0.0,0.0
498,Souillac,FR,2020-01-05 22:29:28,45.6,-0.6,39.99,86,0,5.82,clear sky,0.0,0.0
499,Zhigansk,RU,2020-01-05 22:29:28,66.77,123.37,-10.32,94,100,15.64,overcast clouds,0.0,0.0
500,Aden,YE,2020-01-05 22:29:28,12.79,45.03,77.31,74,79,6.17,broken clouds,0.0,0.0
501,Harnosand,SE,2020-01-05 22:29:28,62.63,17.94,30.99,100,59,11.16,light rain,0.13,0.0
502,Halalo,SE,2020-01-05 22:29:28,62.63,17.94,30.99,100,59,11.16,light rain,0.0,0.0
503,Sungairaya,ID,2020-01-05 22:29:29,0.7,108.9,73.53,95,81,2.62,broken clouds,0.0,0.0
504,Aykhal,RU,2020-01-05 22:29:29,65.95,111.51,-7.6,76,100,4.47,overcast clouds,0.0,0.0
505,Glenwood Springs,US,2020-01-05 22:29:29,39.55,-107.33,37.99,62,1,24.16,clear sky,0.0,0.0
506,San Andres,PH,2020-01-05 22:29:29,13.32,122.68,73.94,89,89,12.73,light rain,0.25,0.0
507,Acajutla,SV,2020-01-05 22:29:18,13.59,-89.83,82.4,34,0,8.05,clear sky,0.0,0.0
508,Wuwei,CN,2020-01-05 22:29:30,37.93,102.64,17.35,58,75,1.16,broken clouds,0.0,0.0
509,Novyy Urengoy,RU,2020-01-05 22:29:30,66.08,76.63,15.55,93,83,13.69,broken clouds,0.0,0.0
510,Zemio,CF,2020-01-05 22:29:30,5.02,25.13,70.59,31,62,3.69,broken clouds,0.0,0.0
511,Prachin Buri,TH,2020-01-05 22:29:30,14.05,101.37,84.0,61,0,3.96,clear sky,0.0,0.0
512,Viligili,TH,2020-01-05 22:29:30,14.05,101.37,84.0,61,0,3.96,clear sky,0.0,0.0
513,Dongning,CN,2020-01-05 22:29:31,44.06,131.12,8.89,79,0,2.57,clear sky,0.0,0.0
514,Razole,IN,2020-01-05 22:29:31,16.48,81.84,72.07,92,4,4.83,light rain,0.75,0.0
515,Pirai Do Sul,BR,2020-01-05 22:29:31,-24.53,-49.95,72.0,98,37,1.01,moderate rain,3.63,0.0
516,Tarudant,BR,2020-01-05 22:29:31,-24.53,-49.95,72.0,98,37,1.01,moderate rain,0.0,0.0
517,Bayangol,MN,2020-01-05 22:29:32,48.91,106.09,0.55,95,87,5.12,overcast clouds,0.0,0.0
518,Nouadhibou,MR,2020-01-05 22:29:32,20.93,-17.03,62.6,55,33,14.99,scattered clouds,0.0,0.0
519,Vanavara,RU,2020-01-05 22:29:32,60.35,102.28,11.68,94,100,8.68,light snow,0.0,0.13
520,Itaituba,BR,2020-01-05 22:29:32,-4.26,-55.99,84.2,79,20,9.17,shower rain,0.0,0.0
521,Faya,SA,2020-01-05 22:29:32,18.39,42.45,59.0,82,40,10.29,scattered clouds,0.0,0.0
522,Kapchorwa,UG,2020-01-05 22:29:33,1.4,34.45,68.41,69,66,3.33,broken clouds,0.0,0.0
523,Luderitz,NA,2020-01-05 22:29:33,-26.65,15.16,63.55,85,0,24.99,clear sky,0.0,0.0
524,Chapais,CA,2020-01-05 22:29:33,49.78,-74.86,8.6,78,90,2.24,light snow,0.0,0.0
525,Takhli,TH,2020-01-05 22:29:33,15.26,100.34,77.0,71,0,1.74,clear sky,0.0,0.0
526,Menzelinsk,RU,2020-01-05 22:29:33,55.73,53.11,30.2,86,75,8.95,broken clouds,0.0,0.0
527,State College,US,2020-01-05 22:26:52,40.79,-77.86,33.01,68,90,9.17,overcast clouds,0.0,0.0
528,Amli,US,2020-01-05 22:26:52,40.79,-77.86,33.01,68,90,9.17,overcast clouds,0.0,0.0
529,Viet Tri,VN,2020-01-05 22:26:06,21.3,105.43,68.0,94,75,5.82,mist,0.0,0.0
530,Wukari,NG,2020-01-05 22:29:34,7.87,9.78,75.96,21,63,4.07,broken clouds,0.0,0.0
531,Benito Juarez,CU,2020-01-05 22:29:34,22.29,-79.63,73.4,56,20,13.87,few clouds,0.0,0.0
532,Novo Oriente,BR,2020-01-05 22:29:34,-5.54,-40.77,74.28,86,99,2.8,moderate rain,3.38,0.0
533,Talcahuano,CL,2020-01-05 22:29:35,-36.72,-73.12,64.4,63,0,16.11,clear sky,0.0,0.0
534,Pokosnoye,RU,2020-01-05 22:29:35,55.53,101.05,13.26,93,100,7.76,overcast clouds,0.0,0.0
535,Grimari,RU,2020-01-05 22:29:35,55.53,101.05,13.26,93,100,7.76,overcast clouds,0.0,0.0
536,Kjopsvik,NO,2020-01-05 22:29:35,68.1,16.37,41.0,92,90,11.41,light snow,0.0,0.0
537,Itarema,BR,2020-01-05 22:29:36,-2.92,-39.92,79.92,76,67,8.81,broken clouds,0.0,0.0
538,Juegang,CN,2020-01-05 22:29:36,32.31,121.18,57.99,88,100,3.49,light rain,1.5,0.0
539,Sioux Lookout,CA,2020-01-05 22:29:36,50.1,-91.92,23.0,79,90,18.34,light snow,0.0,0.0
540,Yunjinghong,CA,2020-01-05 22:29:36,50.1,-91.92,23.0,79,90,18.34,light snow,0.0,0.0
541,Karasburg,NA,2020-01-05 22:29:36,-28.01,18.75,70.09,40,0,14.9,clear sky,0.0,0.0
542,Huzhou,CN,2020-01-05 22:29:37,30.86,120.1,57.99,92,100,2.57,overcast clouds,0.0,0.0
543,Gigmoto,PH,2020-01-05 22:29:37,13.78,124.39,80.2,79,100,24.92,light rain,0.94,0.0
544,Karwar,IN,2020-01-05 22:29:37,14.8,74.13,72.32,72,1,3.69,clear sky,0.0,0.0
545,Banda Aceh,ID,2020-01-05 22:25:23,5.56,95.32,71.85,94,0,5.41,clear sky,0.0,0.0
546,Verkhnyaya Inta,RU,2020-01-05 22:29:37,65.99,60.32,13.82,90,55,16.31,broken clouds,0.0,0.0
547,Saint-Honore,RU,2020-01-05 22:29:37,65.99,60.32,13.82,90,55,16.31,broken clouds,0.0,0.0
548,Parrita,CR,2020-01-05 22:29:38,9.52,-84.33,78.8,57,9,16.11,light rain,0.13,0.0
549,Huarmey,PE,2020-01-05 22:29:38,-10.07,-78.15,78.49,57,82,7.34,broken clouds,0.0,0.0
550,Evensk,RU,2020-01-05 22:29:38,61.92,159.24,-1.3,45,27,4.92,scattered clouds,0.0,0.0
551,Tessalit,ML,2020-01-05 22:29:38,20.2,1.01,57.83,19,0,9.95,clear sky,0.0,0.0
552,Yenagoa,NG,2020-01-05 22:29:39,4.92,6.26,77.58,67,97,3.15,overcast clouds,0.0,0.0
553,Ambulu,ID,2020-01-05 22:29:39,-8.35,113.61,80.87,82,100,10.11,moderate rain,4.63,0.0
554,Poum,MK,2020-01-05 22:29:39,41.28,20.71,23.95,69,2,7.63,clear sky,0.0,0.0
555,Torrington,US,2020-01-05 22:29:39,42.06,-104.18,37.4,40,1,11.41,clear sky,0.0,0.0
556,Talnakh,RU,2020-01-05 22:29:39,69.49,88.39,21.2,92,75,26.84,shower snow,0.0,0.0
557,Mahanje,RU,2020-01-05 22:29:39,69.49,88.39,21.2,92,75,26.84,shower snow,0.0,0.0
558,Susaki,JP,2020-01-05 22:29:40,33.42,133.28,37.4,69,40,8.05,scattered clouds,0.0,0.0
559,Adrar,DZ,2020-01-05 22:29:40,27.87,-0.29,48.2,26,0,12.75,clear sky,0.0,0.0
560,Ribeira Grande,PT,2020-01-05 22:29:40,38.52,-28.7,64.4,93,40,13.87,scattered clouds,0.0,0.0
561,Rawson,AR,2020-01-05 22:29:40,-43.3,-65.11,64.76,60,42,22.15,scattered clouds,0.0,0.0
562,Mwinilunga,ZM,2020-01-05 22:29:41,-11.73,24.43,63.73,93,100,1.01,light rain,1.44,0.0
563,Karla,EE,2020-01-05 22:29:41,59.37,24.93,30.2,68,90,11.41,light snow,0.0,0.0
564,Kuching,MY,2020-01-05 22:29:41,1.56,110.34,77.0,100,90,5.82,light rain,0.0,0.0
565,Krasnoselkup,MY,2020-01-05 22:29:41,1.56,110.34,77.0,100,90,5.82,light rain,0.0,0.0
566,Tarakan,ID,2020-01-05 22:29:41,3.3,117.63,75.15,90,100,5.03,light rain,0.5,0.0
567,Vichuga,RU,2020-01-05 22:29:41,57.22,41.92,20.48,94,7,6.06,clear sky,0.0,0.0
568,Tabou,CI,2020-01-05 22:29:42,4.42,-7.36,72.61,68,0,2.42,clear sky,0.0,0.0
569,Vila Velha,BR,2020-01-05 22:28:17,-3.71,-38.6,86.0,74,20,5.82,few clouds,0.0,0.0
570,Peterhead,AU,2020-01-05 22:29:42,-34.83,138.5,66.99,51,3,4.7,clear sky,0.0,0.0
571,Varhaug,NO,2020-01-05 22:29:42,58.61,5.65,46.4,93,90,6.93,light rain,0.0,0.0
572,Hirara,JP,2020-01-05 22:29:42,24.8,125.28,64.4,82,40,5.82,scattered clouds,0.0,0.0
573,Oulainen,FI,2020-01-05 22:29:43,64.27,24.8,30.0,92,100,8.01,light snow,0.0,0.31
574,Ostersund,SE,2020-01-05 22:29:43,63.18,14.64,37.99,86,20,9.17,very heavy rain,0.0,0.0
575,Asfi,SE,2020-01-05 22:29:43,63.18,14.64,37.99,86,20,9.17,very heavy rain,0.0,0.0
576,Mehamn,NO,2020-01-05 22:29:43,71.03,27.85,28.4,79,75,13.87,broken clouds,0.0,0.0
577,Talara,PE,2020-01-05 22:29:43,-4.58,-81.27,62.6,100,0,13.87,clear sky,0.0,0.0
578,Filadelfia,PY,2020-01-05 22:29:44,-22.35,-60.04,101.8,14,0,7.74,clear sky,0.0,0.0
579,Yermish,RU,2020-01-05 22:29:44,54.77,42.27,22.42,94,25,2.8,scattered clouds,0.0,0.0
580,Thunder Bay,CA,2020-01-05 22:25:01,48.41,-89.26,30.2,86,90,13.87,light snow,0.0,0.0
581,Kiama,AU,2020-01-05 22:29:44,-34.67,150.86,70.0,88,100,5.82,light rain,0.38,0.0
582,Rivera,UY,2020-01-05 22:29:44,-30.9,-55.54,87.4,38,0,9.73,clear sky,0.0,0.0
583,Baoshan,CN,2020-01-05 22:29:45,31.41,121.49,59.0,93,84,6.71,broken clouds,0.0,0.0
584,San Vicente,EC,2020-01-05 22:29:45,-0.59,-80.41,78.8,83,75,4.7,broken clouds,0.0,0.0
585,Bugasong,PH,2020-01-05 22:29:45,11.04,122.06,78.78,80,75,6.62,broken clouds,0.0,0.0
586,Rio Cuarto,AR,2020-01-05 22:29:45,-33.13,-64.35,84.2,42,75,25.28,broken clouds,0.0,0.0
587,Vaitape,PF,2020-01-05 22:29:45,-16.52,-151.75,81.57,75,37,9.42,scattered clouds,0.0,0.0
588,Aromashevo,RU,2020-01-05 22:29:46,56.86,68.64,11.97,94,86,9.48,overcast clouds,0.0,0.0
589,Bilma,NE,2020-01-05 22:29:46,18.69,12.92,54.57,29,93,5.93,overcast clouds,0.0,0.0
590,Kismayo,NE,2020-01-05 22:29:46,18.69,12.92,54.57,29,93,5.93,overcast clouds,0.0,0.0
591,Ngukurr,NE,2020-01-05 22:29:46,18.69,12.92,54.57,29,93,5.93,overcast clouds,0.0,0.0
592,Antofagasta,CL,2020-01-05 22:29:46,-23.65,-70.4,71.6,68,75,12.75,broken clouds,0.0,0.0
593,Solnechnyy,RU,2020-01-05 22:29:46,50.72,136.64,-2.0,86,0,2.57,clear sky,0.0,0.0
594,Fare,PF,2020-01-05 22:29:47,-16.7,-151.02,81.37,77,67,10.74,light rain,0.81,0.0
595,Omsukchan,RU,2020-01-05 22:29:47,62.53,155.8,-7.28,52,21,1.45,few clouds,0.0,0.0
596,Yakeshi,CN,2020-01-05 22:29:47,49.28,120.73,11.05,80,100,5.3,overcast clouds,0.0,0.0
597,Marawi,PH,2020-01-05 22:29:47,8.0,124.29,71.01,88,33,8.01,scattered clouds,0.0,0.0
598,Komsomolskiy,RU,2020-01-05 22:29:47,67.55,63.78,9.59,94,87,15.82,overcast clouds,0.0,0.0
599,Jinchang,CN,2020-01-05 22:29:48,38.52,102.19,16.32,60,88,3.51,overcast clouds,0.0,0.0
